[
  {
    "id": "1",
    "name": "맛있는 한식당",
    "address": "서울시 강남구 역삼동 123-45",
    "district": "강남구",
    "latitude": 37.5665,
    "longitude": 126.9780,
    "category": "한식",
    "tags": ["한식", "정통한식", "한정식"],
    "rating": 4.5,
    "reviewCount": 128
  },
  {
    "id": "2",
    "name": "신선한 중식당",
    "address": "서울시 강남구 역삼동 234-56",
    "district": "강남구",
    "latitude": 37.5670,
    "longitude": 126.9785,
    "category": "중식",
    "tags": ["중식", "딤섬", "훠궈"],
    "rating": 4.3,
    "reviewCount": 95
  },
  {
    "id": "3",
    "name": "정통 일식당",
    "address": "서울시 강남구 역삼동 345-67",
    "district": "강남구",
    "latitude": 37.5675,
    "longitude": 126.9790,
    "category": "일식",
    "tags": ["일식", "스시", "라멘"],
    "rating": 4.7,
    "reviewCount": 156
  },
  {
    "id": "4",
    "name": "고급 양식당",
    "address": "서울시 강남구 역삼동 456-78",
    "district": "강남구",
    "latitude": 37.5680,
    "longitude": 126.9795,
    "category": "양식",
    "tags": ["양식", "스테이크", "파스타"],
    "rating": 4.6,
    "reviewCount": 89
  },
  {
    "id": "5",
    "name": "아늑한 카페",
    "address": "서울시 강남구 역삼동 567-89",
    "district": "강남구",
    "latitude": 37.5685,
    "longitude": 126.9800,
    "category": "카페",
    "tags": ["카페", "커피", "디저트"],
    "rating": 4.2,
    "reviewCount": 203
  },
  {
    "id": "6",
    "name": "전통 떡집",
    "address": "서울시 종로구 인사동 123-45",
    "district": "종로구",
    "latitude": 37.5715,
    "longitude": 126.9850,
    "category": "디저트",
    "tags": ["떡", "전통", "디저트"],
    "rating": 4.4,
    "reviewCount": 167
  },
  {
    "id": "7",
    "name": "신선한 회집",
    "address": "서울시 강남구 청담동 234-56",
    "district": "강남구",
    "latitude": 37.5240,
    "longitude": 127.0470,
    "category": "회",
    "tags": ["회", "생선", "신선"],
    "rating": 4.8,
    "reviewCount": 234
  },
  {
    "id": "8",
    "name": "매운 닭갈비",
    "address": "서울시 마포구 홍대입구 345-67",
    "district": "마포구",
    "latitude": 37.5575,
    "longitude": 126.9250,
    "category": "닭갈비",
    "tags": ["닭갈비", "매운맛", "구이"],
    "rating": 4.1,
    "reviewCount": 189
  },
  {
    "id": "9",
    "name": "정통 김치찌개",
    "address": "서울시 강남구 역삼동 678-90",
    "district": "강남구",
    "latitude": 37.5690,
    "longitude": 126.9805,
    "category": "한식",
    "tags": ["김치찌개", "한식", "매운맛"],
    "rating": 4.3,
    "reviewCount": 145
  },
  {
    "id": "10",
    "name": "고급 스테이크하우스",
    "address": "서울시 강남구 청담동 345-67",
    "district": "강남구",
    "latitude": 37.5250,
    "longitude": 127.0480,
    "category": "양식",
    "tags": ["스테이크", "고급", "양식"],
    "rating": 4.9,
    "reviewCount": 312
  },
  {
    "id": "11",
    "name": "전통 찜닭",
    "address": "서울시 종로구 인사동 234-56",
    "district": "종로구",
    "latitude": 37.5720,
    "longitude": 126.9855,
    "category": "한식",
    "tags": ["찜닭", "한식", "전통"],
    "rating": 4.2,
    "reviewCount": 178
  },
  {
    "id": "12",
    "name": "신선한 초밥",
    "address": "서울시 강남구 역삼동 789-01",
    "district": "강남구",
    "latitude": 37.5695,
    "longitude": 126.9810,
    "category": "일식",
    "tags": ["초밥", "일식", "신선"],
    "rating": 4.6,
    "reviewCount": 267
  },
  {
    "id": "13",
    "name": "아늑한 베이커리",
    "address": "서울시 마포구 홍대입구 456-78",
    "district": "마포구",
    "latitude": 37.5580,
    "longitude": 126.9255,
    "category": "베이커리",
    "tags": ["베이커리", "빵", "디저트"],
    "rating": 4.4,
    "reviewCount": 198
  },
  {
    "id": "14",
    "name": "정통 삼겹살",
    "address": "서울시 강남구 역삼동 890-12",
    "district": "강남구",
    "latitude": 37.5700,
    "longitude": 126.9815,
    "category": "한식",
    "tags": ["삼겹살", "구이", "한식"],
    "rating": 4.5,
    "reviewCount": 223
  },
  {
    "id": "15",
    "name": "고급 이탈리안",
    "address": "서울시 강남구 청담동 456-78",
    "district": "강남구",
    "latitude": 37.5260,
    "longitude": 127.0490,
    "category": "양식",
    "tags": ["이탈리안", "파스타", "피자"],
    "rating": 4.7,
    "reviewCount": 189
  },
  {
    "id": "16",
    "name": "전통 갈비탕",
    "address": "서울시 종로구 인사동 345-67",
    "district": "종로구",
    "latitude": 37.5725,
    "longitude": 126.9860,
    "category": "한식",
    "tags": ["갈비탕", "한식", "전통"],
    "rating": 4.3,
    "reviewCount": 156
  },
  {
    "id": "17",
    "name": "신선한 회무침",
    "address": "서울시 강남구 역삼동 901-23",
    "district": "강남구",
    "latitude": 37.5705,
    "longitude": 126.9820,
    "category": "회",
    "tags": ["회무침", "회", "신선"],
    "rating": 4.4,
    "reviewCount": 134
  },
  {
    "id": "18",
    "name": "매운 부대찌개",
    "address": "서울시 마포구 홍대입구 567-89",
    "district": "마포구",
    "latitude": 37.5585,
    "longitude": 126.9260,
    "category": "한식",
    "tags": ["부대찌개", "매운맛", "한식"],
    "rating": 4.1,
    "reviewCount": 167
  },
  {
    "id": "19",
    "name": "정통 된장찌개",
    "address": "서울시 강남구 역삼동 012-34",
    "district": "강남구",
    "latitude": 37.5710,
    "longitude": 126.9825,
    "category": "한식",
    "tags": ["된장찌개", "한식", "정통"],
    "rating": 4.2,
    "reviewCount": 145
  },
  {
    "id": "20",
    "name": "고급 프렌치",
    "address": "서울시 강남구 청담동 567-89",
    "district": "강남구",
    "latitude": 37.5270,
    "longitude": 127.0500,
    "category": "양식",
    "tags": ["프렌치", "고급", "양식"],
    "rating": 4.8,
    "reviewCount": 245
  },
  {
    "id": "21",
    "name": "전통 순대",
    "address": "서울시 종로구 인사동 456-78",
    "district": "종로구",
    "latitude": 37.5730,
    "longitude": 126.9865,
    "category": "한식",
    "tags": ["순대", "한식", "전통"],
    "rating": 4.0,
    "reviewCount": 123
  },
  {
    "id": "22",
    "name": "신선한 회덮밥",
    "address": "서울시 강남구 역삼동 123-45",
    "district": "강남구",
    "latitude": 37.5715,
    "longitude": 126.9830,
    "category": "회",
    "tags": ["회덮밥", "회", "신선"],
    "rating": 4.5,
    "reviewCount": 178
  },
  {
    "id": "23",
    "name": "아늑한 아이스크림",
    "address": "서울시 마포구 홍대입구 678-90",
    "district": "마포구",
    "latitude": 37.5590,
    "longitude": 126.9265,
    "category": "디저트",
    "tags": ["아이스크림", "디저트", "시원함"],
    "rating": 4.3,
    "reviewCount": 234
  },
  {
    "id": "24",
    "name": "정통 닭볶음탕",
    "address": "서울시 강남구 역삼동 234-56",
    "district": "강남구",
    "latitude": 37.5720,
    "longitude": 126.9835,
    "category": "한식",
    "tags": ["닭볶음탕", "한식", "정통"],
    "rating": 4.4,
    "reviewCount": 156
  },
  {
    "id": "25",
    "name": "고급 스페니시",
    "address": "서울시 강남구 청담동 678-90",
    "district": "강남구",
    "latitude": 37.5280,
    "longitude": 127.0510,
    "category": "양식",
    "tags": ["스페니시", "고급", "양식"],
    "rating": 4.6,
    "reviewCount": 189
  },
  {
    "id": "26",
    "name": "전통 감자탕",
    "address": "서울시 종로구 인사동 567-89",
    "district": "종로구",
    "latitude": 37.5735,
    "longitude": 126.9870,
    "category": "한식",
    "tags": ["감자탕", "한식", "전통"],
    "rating": 4.2,
    "reviewCount": 134
  },
  {
    "id": "27",
    "name": "신선한 회국수",
    "address": "서울시 강남구 역삼동 345-67",
    "district": "강남구",
    "latitude": 37.5725,
    "longitude": 126.9840,
    "category": "회",
    "tags": ["회국수", "회", "신선"],
    "rating": 4.3,
    "reviewCount": 145
  },
  {
    "id": "28",
    "name": "매운 마라탕",
    "address": "서울시 마포구 홍대입구 789-01",
    "district": "마포구",
    "latitude": 37.5595,
    "longitude": 126.9270,
    "category": "중식",
    "tags": ["마라탕", "매운맛", "중식"],
    "rating": 4.1,
    "reviewCount": 198
  },
  {
    "id": "29",
    "name": "정통 순두부찌개",
    "address": "서울시 강남구 역삼동 456-78",
    "district": "강남구",
    "latitude": 37.5730,
    "longitude": 126.9845,
    "category": "한식",
    "tags": ["순두부찌개", "한식", "정통"],
    "rating": 4.3,
    "reviewCount": 167
  },
  {
    "id": "30",
    "name": "고급 멕시칸",
    "address": "서울시 강남구 청담동 789-01",
    "district": "강남구",
    "latitude": 37.5290,
    "longitude": 127.0520,
    "category": "양식",
    "tags": ["멕시칸", "고급", "양식"],
    "rating": 4.5,
    "reviewCount": 178
  }
] 